City ID,City,Country,Lat,Lng,Max Temp,Humidity,Cloudiness,Wind Speed,Current Description
0,Hermanus,ZA,-34.4187,19.2345,63.0,86,100,3.0,overcast clouds
1,Kaeo,NZ,-35.1,173.7833,56.75,82,92,3.83,overcast clouds
2,Silopi,TR,37.2497,42.4694,73.4,31,75,12.66,broken clouds
3,Busselton,AU,-33.65,115.3333,52.0,97,100,4.36,overcast clouds
4,Biltine,TD,14.5333,20.9167,90.07,23,99,5.32,overcast clouds
5,Sobolevo,RU,54.4299,31.8996,31.51,79,12,7.58,few clouds
6,Tucurui,BR,-3.7661,-49.6725,81.55,81,99,2.64,overcast clouds
7,Jamestown,US,42.097,-79.2353,46.0,75,90,14.97,overcast clouds
8,New Castle,US,41.0037,-80.347,57.2,66,90,14.97,overcast clouds
9,Chuguyevka,RU,44.1653,133.8633,29.17,48,0,3.83,clear sky
10,Qaanaaq,GL,77.484,-69.3632,31.48,74,27,4.07,scattered clouds
11,Moses Lake,US,47.1301,-119.2781,60.8,36,20,8.05,few clouds
12,Cape Town,ZA,-33.9258,18.4232,62.01,94,20,8.05,few clouds
13,Dikson,RU,73.5069,80.5464,16.52,91,100,11.3,overcast clouds
14,Rikitea,PF,-23.1203,-134.9692,77.86,74,100,8.1,light rain
15,Sakakah,SA,29.9697,40.2064,87.8,14,40,19.57,dust
16,Provost,CA,52.3501,-110.2683,51.8,22,100,3.44,overcast clouds
17,Gannan,CN,47.9147,123.5031,46.83,35,100,10.36,overcast clouds
18,Cleethorpes,GB,53.5605,-0.0323,44.6,65,90,16.11,overcast clouds
19,Faanui,PF,-16.4833,-151.75,80.94,64,4,2.91,clear sky
20,Bell Ville,AR,-32.6259,-62.6887,71.01,36,0,4.0,clear sky
21,Udachnyy,RU,66.4167,112.4,7.88,91,100,23.82,overcast clouds
22,Cap Malheureux,MU,-19.9842,57.6142,78.01,82,100,8.01,overcast clouds
23,Huarmey,PE,-10.0681,-78.1522,72.66,73,9,9.15,clear sky
24,Ushuaia,AR,-54.8,-68.3,55.4,54,40,10.36,scattered clouds
25,Bredasdorp,ZA,-34.5322,20.0403,53.6,94,100,2.28,overcast clouds
26,Butaritari,KI,3.0707,172.7902,82.36,76,19,12.17,few clouds
27,Urengoy,RU,65.9667,78.3667,21.85,93,100,8.16,overcast clouds
28,New Norfolk,AU,-42.7826,147.0587,55.99,79,96,4.0,overcast clouds
29,Belaya Gora,RU,68.5333,146.4167,17.38,85,100,11.23,overcast clouds
30,Richards Bay,ZA,-28.783,32.0377,66.4,88,15,3.31,few clouds
31,Avera,US,33.194,-82.5271,75.2,50,40,9.22,scattered clouds
32,Ribeira Grande,PT,38.5167,-28.7,62.6,77,20,11.5,few clouds
33,Tuktoyaktuk,CA,69.4541,-133.0374,12.2,79,90,12.66,light snow
34,Vaini,TO,-21.2,-175.2,75.2,100,75,5.75,light rain
35,Lazaro Cardenas,MX,17.9583,-102.2,84.6,51,100,10.16,overcast clouds
36,Nikolskoye,RU,59.7035,30.7861,39.0,93,90,8.95,overcast clouds
37,Arraial Do Cabo,BR,-22.9661,-42.0278,80.6,78,0,8.05,clear sky
38,Mpanda,TZ,-6.3655,31.0409,65.32,95,95,1.21,light rain
39,Grand Gaube,MU,-20.0064,57.6608,78.01,82,100,8.01,overcast clouds
40,Port Hueneme,US,34.1478,-119.1951,66.2,59,90,11.5,overcast clouds
41,Tucupita,VE,9.0622,-62.051,85.14,56,100,5.03,overcast clouds
42,Kodiak,US,57.79,-152.4072,42.8,81,90,12.66,overcast clouds
43,Chuy,UY,-33.6971,-53.4616,62.31,83,98,12.64,overcast clouds
44,Vung Tau,VN,10.346,107.0843,82.81,78,100,9.1,overcast clouds
45,Atuona,PF,-9.8,-139.0333,79.92,72,50,15.3,scattered clouds
46,Barcelos,PT,41.5388,-8.6151,62.6,77,20,3.44,few clouds
47,Nabire,ID,-3.3667,135.4833,74.55,91,100,0.51,overcast clouds
48,Kapaa,US,22.0752,-159.319,80.6,61,40,16.11,scattered clouds
49,Tramandai,BR,-29.9847,-50.1336,69.73,71,47,13.73,scattered clouds
50,Maniitsoq,GL,65.4167,-52.9,39.69,80,100,2.39,overcast clouds
51,Upernavik,GL,72.7868,-56.1549,36.27,83,4,4.05,clear sky
52,Aykhal,RU,66.0,111.5,5.92,94,100,25.41,overcast clouds
53,Valley,US,45.1277,-116.1262,39.99,70,90,10.36,overcast clouds
54,Albany,US,42.6001,-73.9662,57.2,67,90,8.05,overcast clouds
55,Punta Arenas,CL,-53.15,-70.9167,57.2,62,75,19.57,light rain
56,Tasiilaq,GL,65.6145,-37.6368,37.4,70,90,19.57,light rain
57,Lompoc,US,34.6391,-120.4579,57.2,72,100,13.8,overcast clouds
58,Larap,PH,14.299,122.6504,75.06,87,20,7.78,light rain
59,Port Elizabeth,ZA,-33.918,25.5701,59.0,88,40,2.3,scattered clouds
60,Bentiu,SS,9.2333,29.8333,84.27,52,100,0.81,overcast clouds
61,Provideniya,RU,64.3833,-173.3,35.6,69,0,2.24,clear sky
62,Castro,BR,-24.7911,-50.0119,64.26,85,100,4.74,overcast clouds
63,Puerto Ayora,EC,-0.7393,-90.3518,84.2,65,20,17.27,few clouds
64,Mangrol,IN,21.1167,70.1167,81.16,82,4,11.95,clear sky
65,Dunedin,NZ,-45.8742,170.5036,43.14,66,84,8.93,broken clouds
66,Hofn,IS,64.2539,-15.2082,42.91,88,100,12.5,overcast clouds
67,Esperantinopolis,BR,-4.8667,-44.7083,79.81,91,70,2.1,broken clouds
68,Esperance,AU,-33.8667,121.9,60.8,63,0,18.41,clear sky
69,Lorengau,PG,-2.0226,147.2712,79.23,83,53,6.35,broken clouds
70,Hobart,AU,-42.8794,147.3294,57.2,62,90,12.66,overcast clouds
71,Ghanzi,BW,-21.5667,21.7833,65.62,28,0,3.18,clear sky
72,Marystown,CA,47.1666,-55.1483,46.04,61,8,13.85,clear sky
73,Mahebourg,MU,-20.4081,57.7,75.2,94,75,12.66,light rain
74,Northam,GB,51.0333,-4.2167,52.0,68,5,10.0,clear sky
75,Namibe,AO,-15.1961,12.1522,78.46,66,1,11.74,clear sky
76,Hay River,CA,60.8156,-115.7999,23.0,63,75,10.36,light snow
77,Port Alfred,ZA,-33.5906,26.891,70.36,65,100,13.11,overcast clouds
78,Kajaani,FI,64.2273,27.7285,35.6,93,90,6.91,overcast clouds
79,Necochea,AR,-38.5473,-58.7368,63.0,71,86,1.01,overcast clouds
80,Aasiaat,GL,68.7098,-52.8699,36.39,75,71,2.08,broken clouds
81,Karatau,KZ,43.1667,70.4667,52.9,41,8,3.85,clear sky
82,Ponta Do Sol,PT,32.6667,-17.1,60.01,86,51,5.99,broken clouds
83,Khatanga,RU,71.9667,102.5,4.59,88,78,14.72,broken clouds
84,Nkhotakota,MW,-12.9274,34.2961,71.33,82,7,3.69,clear sky
85,Longyearbyen,SJ,78.2186,15.6401,19.4,63,40,12.66,scattered clouds
86,Korcula,HR,42.9622,17.1369,53.6,58,0,2.3,clear sky
87,Dharchula,IN,29.85,80.5333,61.41,30,0,9.26,clear sky
88,Talavera De La Reina,ES,39.9635,-4.8308,52.0,92,94,5.17,overcast clouds
89,Krasnooktyabrskiy,RU,44.9328,38.3712,46.99,86,100,6.58,light rain
90,Agadir,MA,30.4202,-9.5982,66.2,72,40,9.22,scattered clouds
91,Mataura,NZ,-46.1927,168.8643,45.0,81,72,11.01,broken clouds
92,Petropavlovsk-Kamchatskiy,RU,53.0452,158.6483,33.8,100,90,4.47,light rain
93,Avarua,CK,-21.2078,-159.775,80.6,83,40,9.22,light rain
94,Saskylakh,RU,71.9167,114.0833,16.18,95,100,14.07,light snow
95,Kosino,RU,58.4127,51.2782,35.76,85,79,12.77,broken clouds
96,East London,ZA,-33.0153,27.9116,68.4,75,100,11.23,overcast clouds
97,Hambantota,LK,6.1241,81.1185,79.59,81,5,6.06,clear sky
98,Ruston,US,32.5232,-92.6379,75.2,31,1,4.61,clear sky
99,Lindenhurst,US,40.6868,-73.3735,57.99,62,90,11.5,overcast clouds
100,Teguldet,RU,57.3064,88.1667,35.06,99,100,3.38,overcast clouds
101,Vao,NC,-22.6667,167.4833,73.33,76,52,12.41,broken clouds
102,Isiro,CD,2.7739,27.616,66.87,99,100,1.99,overcast clouds
103,Barrow,US,71.2906,-156.7887,15.8,92,1,18.41,clear sky
104,Kostivere,EE,59.427,25.0962,37.4,87,75,6.91,broken clouds
105,Sao Joao Da Barra,BR,-21.6403,-41.0511,80.6,69,0,13.8,clear sky
106,Deputatskiy,RU,69.3,139.9,18.28,93,100,4.83,overcast clouds
107,Chokurdakh,RU,70.6333,147.9167,19.27,94,100,14.25,light snow
108,College,US,64.8569,-147.8028,55.4,35,1,0.85,clear sky
109,Mocoa,CO,1.1493,-76.6466,81.27,83,73,2.73,heavy intensity rain
110,Dingle,PH,10.9995,122.6711,75.74,85,38,3.33,light rain
111,Atar,MR,20.5169,-13.0499,86.05,14,0,8.93,clear sky
112,Pitimbu,BR,-7.4706,-34.8086,80.6,78,0,12.66,clear sky
113,Mar Del Plata,AR,-38.0023,-57.5575,64.4,68,40,13.8,scattered clouds
114,Itaituba,BR,-4.2761,-55.9836,93.2,59,40,11.5,scattered clouds
115,Shitanjing,CN,39.2342,106.3439,43.57,53,18,14.63,few clouds
116,Nishihara,JP,26.1842,127.7558,66.2,88,20,4.61,few clouds
117,Dubovskoye,RU,47.4092,42.7575,46.02,49,100,6.4,overcast clouds
118,Shelburne,CA,44.0787,-80.2041,42.01,80,88,19.19,overcast clouds
119,San Quintin,MX,30.4833,-115.95,64.24,64,24,17.49,few clouds
120,Bubaque,GW,11.2833,-15.8333,78.37,69,44,20.87,scattered clouds
121,Virden,US,39.5009,-89.7679,66.99,56,12,3.0,few clouds
122,Padang,ID,-0.9492,100.3543,77.59,85,92,3.36,overcast clouds
123,Anda,CN,46.4,125.3167,45.07,34,100,8.01,overcast clouds
124,Korla,CN,41.7597,86.1469,49.75,26,7,8.01,clear sky
125,Cherskiy,RU,68.75,161.3,7.2,93,96,4.54,overcast clouds
126,Bluff,NZ,-46.6,168.3333,45.0,81,71,11.01,broken clouds
127,Plover,US,44.4564,-89.544,51.01,31,1,2.84,clear sky
128,Georgetown,MY,5.4112,100.3354,81.0,89,20,3.44,few clouds
129,Mwingi,KE,-0.9344,38.0601,70.99,73,97,4.23,overcast clouds
130,Sri Aman,MY,1.2376,111.4621,73.4,100,93,0.6,overcast clouds
131,Yellowknife,CA,62.456,-114.3525,10.99,61,90,9.22,light snow
132,Pionerskiy,RU,54.9508,20.2275,36.0,80,40,6.71,scattered clouds
133,Saldanha,ZA,-33.0117,17.9442,60.8,88,100,6.91,overcast clouds
134,Canto Do Buriti,BR,-8.11,-42.9444,78.06,84,100,2.93,overcast clouds
135,The Valley,AI,18.217,-63.0578,84.2,69,20,13.8,few clouds
136,Lasa,IT,46.6166,10.7002,59.0,53,0,4.61,clear sky
137,Imeni Poliny Osipenko,RU,52.4201,136.4853,26.29,51,26,4.59,scattered clouds
138,Lata,PT,40.1629,-8.3327,60.01,88,98,3.47,overcast clouds
139,Buin,CL,-33.7333,-70.75,77.0,27,0,5.75,clear sky
140,Novyy Urengoy,RU,66.0833,76.6333,28.04,95,100,8.52,overcast clouds
141,Souillac,MU,-20.5167,57.5167,75.2,94,75,12.66,light rain
142,Westport,US,41.1415,-73.3579,57.2,62,90,10.36,overcast clouds
143,Arawa,PG,-6.2132,155.5367,76.5,81,77,1.68,broken clouds
144,Calbuco,CL,-41.768,-73.1273,55.4,88,75,5.75,broken clouds
145,Constitucion,CL,-35.3333,-72.4167,64.71,62,4,15.12,clear sky
146,Fortuna,US,40.5982,-124.1573,55.0,82,75,5.75,broken clouds
147,Kharhial,IN,20.2833,82.7667,86.81,19,0,4.32,clear sky
148,Tommot,RU,58.9564,126.2925,32.88,96,100,3.94,overcast clouds
149,Geraldton,AU,-28.7667,114.6,64.4,55,0,10.36,clear sky
150,Torbay,CA,47.6666,-52.7314,53.6,35,20,23.02,few clouds
151,Savannah Bight,HN,16.45,-85.85,87.8,70,20,3.44,few clouds
152,Vanimo,PG,-2.6741,141.3028,75.33,84,100,3.02,overcast clouds
153,Aripuana,BR,-9.1667,-60.6333,82.72,79,93,0.51,overcast clouds
154,Balkanabat,TM,39.5108,54.3671,77.52,31,0,1.25,clear sky
155,Cayenne,GF,4.9333,-52.3333,84.2,74,90,11.5,overcast clouds
156,Kruisfontein,ZA,-34.0033,24.7314,72.75,38,100,5.53,overcast clouds
157,Port Hedland,AU,-20.3167,118.5667,66.2,82,0,8.05,clear sky
158,Hervey Bay,AU,-25.2986,152.8535,60.01,89,3,4.0,clear sky
159,Ilulissat,GL,69.2167,-51.1,50.0,43,95,11.5,overcast clouds
160,Pokrovsk,UA,48.282,37.1758,44.26,42,100,4.85,overcast clouds
161,Andenes,NO,69.3143,16.1194,35.6,75,75,6.91,light rain
162,Kahului,US,20.8947,-156.47,80.6,57,40,20.71,scattered clouds
163,Toguchin,RU,55.2353,84.3858,38.79,73,100,5.39,overcast clouds
164,Kasongo-Lunda,CD,-6.4667,16.8167,74.48,86,74,1.79,light rain
165,Thompson,CA,55.7435,-97.8558,37.4,38,75,11.5,broken clouds
166,Surat Thani,TH,9.1667,99.25,79.0,85,100,4.52,overcast clouds
167,Lianzhou,CN,24.7811,112.3825,62.26,92,100,3.51,overcast clouds
168,Naze,JP,28.3667,129.4833,64.15,71,34,10.85,scattered clouds
169,Afsin,TR,38.2477,36.914,63.77,50,100,3.74,overcast clouds
170,Severo-Kurilsk,RU,50.6789,156.125,31.8,97,100,11.05,snow
171,Iberia,US,29.9502,-91.7507,77.0,47,1,4.12,clear sky
172,Cabo San Lucas,MX,22.8909,-109.9124,84.99,32,75,9.22,broken clouds
173,Ogaminana,NG,7.5946,6.2248,79.39,77,99,4.0,light rain
174,Bakreswar,IN,23.8833,87.3667,81.0,32,1,2.57,clear sky
175,Sitka,US,57.0531,-135.33,55.4,54,20,4.61,few clouds
176,Vigrestad,NO,58.5667,5.7,41.0,77,8,19.22,clear sky
177,Murray Bridge,AU,-35.1167,139.2667,54.0,93,0,0.43,clear sky
178,Zhigansk,RU,66.7697,123.3711,32.5,99,100,8.39,light snow
179,Charleville-Mezieres,FR,49.7667,4.7167,45.0,61,40,11.5,scattered clouds
180,Hilo,US,19.7297,-155.09,80.6,57,75,3.44,light rain
181,Olafsvik,IS,64.8945,-23.7142,43.77,84,12,8.7,few clouds
182,Surt,LY,31.2089,16.5887,62.82,83,0,7.0,clear sky
183,Beloha,MG,-25.1667,45.05,72.88,79,0,6.71,clear sky
184,Knysna,ZA,-34.0363,23.0471,60.8,94,0,3.44,clear sky
185,Campos Altos,BR,-19.6961,-46.1714,74.34,44,26,1.57,scattered clouds
186,Bethel,US,41.3712,-73.414,59.0,58,75,6.91,broken clouds
187,Police,PL,53.5521,14.5718,39.0,58,1,6.89,clear sky
188,Broken Hill,AU,-31.95,141.4333,50.0,71,0,6.6,clear sky
189,Polis,CY,35.0367,32.4264,62.6,67,0,3.44,clear sky
190,Portland,US,45.5234,-122.6762,57.99,51,90,5.75,overcast clouds
191,Birin,NP,26.8865,88.0718,62.91,32,26,7.27,scattered clouds
192,Berlevag,NO,70.8578,29.0864,32.0,69,75,9.22,broken clouds
193,Rocha,UY,-34.4833,-54.3333,63.54,73,81,14.03,broken clouds
194,Houma,US,29.5958,-90.7195,79.0,50,1,5.75,clear sky
195,Cabinda,AO,-5.55,12.2,79.3,84,18,5.48,few clouds
196,Rolla,US,37.9514,-91.7713,72.0,45,1,3.44,clear sky
197,Bintulu,MY,3.1667,113.0333,77.0,100,20,3.44,few clouds
198,Lashio,MM,22.9333,97.75,74.39,44,56,1.68,broken clouds
199,Bridgewater,CA,44.3835,-64.5155,51.01,100,100,9.22,light rain
200,Kindu,CD,-2.95,25.95,69.21,94,82,2.82,broken clouds
201,Kavaratti,IN,10.5669,72.642,84.06,72,1,8.37,clear sky
202,Ekpoma,NG,6.7421,6.139,76.55,77,91,4.07,overcast clouds
203,Guiberoua,CI,6.2392,-6.1727,75.4,88,100,2.17,overcast clouds
204,Asadabad,IR,34.7824,48.1185,62.08,34,32,2.89,scattered clouds
205,San,ML,13.3034,-4.8956,98.56,15,56,5.21,broken clouds
206,Galbshtadt,RU,53.2264,78.9845,44.24,48,100,9.37,overcast clouds
207,Yar-Sale,RU,66.8333,70.8333,33.06,92,100,11.97,overcast clouds
208,Cidreira,BR,-30.1811,-50.2056,70.0,69,83,14.12,broken clouds
209,Fujin,CN,47.26,132.0322,36.57,40,11,5.88,few clouds
210,Waddan,LY,29.1614,16.139,68.2,44,1,10.0,clear sky
211,Cedar City,US,37.6775,-113.0619,66.2,15,1,39.12,clear sky
212,Siavonga,ZM,-16.5382,28.7088,75.83,60,27,2.68,scattered clouds
213,Concarneau,FR,47.875,-3.9225,53.6,66,0,16.11,clear sky
214,Notodden,NO,59.5594,9.2585,39.99,47,15,1.99,few clouds
215,Urumqi,CN,43.801,87.6005,41.0,33,0,6.71,clear sky
216,Hualmay,PE,-11.0964,-77.6139,71.37,75,15,7.92,few clouds
217,Lebu,CL,-37.6167,-73.65,59.59,77,0,12.62,clear sky
218,Sao Filipe,CV,14.8961,-24.4956,72.59,71,62,10.58,broken clouds
219,Port Macquarie,AU,-31.4333,152.9167,55.0,96,9,4.0,clear sky
220,Salalah,OM,17.0151,54.0924,84.2,70,75,8.05,broken clouds
221,Nouadhibou,MR,20.931,-17.0347,66.2,82,0,16.11,clear sky
222,Mareeba,AU,-17.0,145.4333,75.2,94,75,10.36,drizzle
223,Poum,NC,-20.2333,164.0167,76.82,78,98,18.3,overcast clouds
224,Dali,CN,25.7,100.1833,56.19,48,0,4.97,clear sky
225,Panji,ID,-7.7253,114.0995,73.94,81,76,4.38,broken clouds
226,Hithadhoo,MV,-0.6,73.0833,82.56,68,99,4.52,overcast clouds
227,Nantucket,US,41.2835,-70.0995,48.2,93,90,25.32,heavy intensity rain
228,Norman Wells,CA,65.282,-126.8329,37.4,38,20,14.97,few clouds
229,Whitehorse,CA,60.7161,-135.0538,50.0,27,1,4.61,clear sky
230,Victoria,HK,22.2855,114.1577,73.0,86,100,19.82,overcast clouds
231,Vilyuysk,RU,63.7553,121.6247,32.9,98,100,4.94,overcast clouds
232,Tiksi,RU,71.6872,128.8694,22.96,96,100,1.72,light snow
233,Nerchinskiy Zavod,RU,51.3088,119.61,41.47,34,100,3.33,overcast clouds
234,Xichang,CN,27.8964,102.2634,58.5,68,88,4.16,overcast clouds
235,Codrington,AU,-38.2667,141.9667,53.62,84,100,4.92,overcast clouds
236,Fort Saint James,CA,54.4333,-124.25,50.02,26,2,5.12,clear sky
237,Prieska,ZA,-29.6641,22.7474,72.7,20,100,5.66,overcast clouds
238,Nortelandia,BR,-14.4547,-56.8028,78.46,80,100,8.08,light rain
239,Salama,HN,14.8333,-86.5833,91.4,46,40,6.91,scattered clouds
240,Iqaluit,CA,63.7506,-68.5145,33.8,80,90,3.44,overcast clouds
241,Ixtapa,MX,20.7,-105.2,82.4,65,75,14.97,broken clouds
242,Isangel,VU,-19.55,169.2667,76.28,87,100,11.41,overcast clouds
243,Amga,RU,60.8953,131.9608,29.01,99,100,2.82,overcast clouds
244,Moura,PT,38.1401,-7.4486,60.8,82,40,5.75,scattered clouds
245,Deer Lake,CA,49.1667,-57.4316,50.0,40,20,14.97,few clouds
246,Port Hardy,CA,50.6996,-127.4199,50.0,93,90,8.05,light rain
247,Srednekolymsk,RU,67.45,153.6833,9.68,89,34,5.19,scattered clouds
248,Pahalgam,IN,34.0333,75.3333,37.53,50,6,11.05,clear sky
249,Sawakin,SD,19.1059,37.3321,83.17,77,9,2.3,clear sky
250,Novodugino,RU,55.6305,34.2842,31.91,80,12,11.12,few clouds
251,Ilebo,CD,-4.3167,20.5833,71.96,97,85,1.77,overcast clouds
252,Puerto Escondido,MX,15.85,-97.0667,87.8,66,40,9.22,scattered clouds
253,Nanortalik,GL,60.1432,-45.2371,41.86,75,100,12.8,light rain
254,Filingue,NE,14.3521,3.3168,94.78,15,100,5.17,overcast clouds
255,Luderitz,NA,-26.6481,15.1594,62.31,90,97,3.78,overcast clouds
256,Yinchuan,CN,38.4681,106.2731,51.6,54,0,2.13,clear sky
257,Zbiroh,CZ,49.8602,13.7726,37.0,74,32,1.99,scattered clouds
258,Neyshabur,IR,36.2133,58.7958,68.04,27,9,5.66,clear sky
259,Dok Kham Tai,TH,19.1624,99.9934,75.63,82,99,1.01,light rain
260,Shingu,JP,33.7333,135.9833,43.02,64,0,8.34,clear sky
261,Guerrero Negro,MX,27.9769,-114.0611,67.95,55,98,13.71,overcast clouds
262,Katsuura,JP,35.1333,140.3,51.01,32,80,5.99,broken clouds
263,Bara,NG,10.3744,10.7288,87.69,37,99,7.36,overcast clouds
264,Muros,ES,42.7762,-9.0603,61.0,84,86,1.01,overcast clouds
265,Oktyabrskoye,RU,43.0645,44.7417,48.2,93,100,4.47,overcast clouds
266,Tual,ID,-5.6667,132.75,83.39,63,100,6.2,overcast clouds
267,Mahajanga,MG,-15.7167,46.3167,78.8,83,20,4.61,few clouds
268,Tulum,MX,20.2167,-87.4667,87.8,62,40,10.36,scattered clouds
269,Tagusao,PH,9.1924,117.8141,79.41,79,79,1.41,broken clouds
270,Chunskiy,RU,56.0815,99.6342,30.49,97,76,7.99,light snow
271,Pilar,BR,-9.5972,-35.9567,80.6,74,0,8.05,clear sky
272,Yakeshi,CN,49.2833,120.7333,43.38,46,100,6.6,overcast clouds
273,Coquimbo,CL,-29.9533,-71.3436,62.6,72,0,11.5,clear sky
274,Loukhi,RU,66.0764,33.0381,34.07,85,100,12.39,overcast clouds
275,Kolondieba,ML,11.0882,-6.8926,93.6,24,88,1.63,overcast clouds
276,Tabou,CI,4.423,-7.3528,79.34,82,100,6.08,overcast clouds
277,Muhos,FI,64.808,25.9931,37.4,70,90,11.5,overcast clouds
278,Port Blair,IN,11.6667,92.75,81.55,74,98,4.97,overcast clouds
279,Bambous Virieux,MU,-20.3428,57.7575,78.01,94,75,12.66,light rain
280,Margate,GB,51.3813,1.3862,48.0,64,40,4.0,scattered clouds
281,Samarai,PG,-10.6167,150.6667,82.47,78,94,12.01,overcast clouds
282,Siderno,IT,38.2779,16.302,57.99,62,24,6.91,few clouds
283,Hayden,US,47.766,-116.7866,48.99,71,90,13.8,light rain
284,Saint-Philippe,RE,-21.3585,55.7679,78.8,73,40,20.71,light rain
285,Hasaki,JP,35.7333,140.8333,46.4,42,20,14.97,few clouds
286,Kavieng,PG,-2.5744,150.7967,81.39,76,100,3.09,light rain
287,Saint-Pierre,RE,-21.3393,55.4781,78.8,73,40,20.71,scattered clouds
288,Nome,US,64.5011,-165.4064,44.6,65,40,4.94,scattered clouds
289,Quang Ngai,VN,15.1167,108.8,75.56,91,97,3.24,overcast clouds
290,Las Vegas,US,36.175,-115.1372,79.0,9,1,23.02,clear sky
291,Yaan,NG,7.3833,8.5667,82.8,66,90,4.81,overcast clouds
292,Sukumo,JP,32.9333,132.7333,47.25,83,13,3.24,few clouds
293,Vardo,NO,70.3705,31.1107,33.8,69,20,13.8,few clouds
294,Klaksvik,FO,62.2266,-6.589,46.4,93,100,11.5,overcast clouds
295,Takoradi,GH,4.8845,-1.7554,81.34,82,79,6.93,broken clouds
296,Sisimiut,GL,66.9395,-53.6735,41.23,72,97,3.65,overcast clouds
297,Belyy Yar,RU,53.6039,91.3903,35.6,64,0,6.71,clear sky
298,Santa Adelia,BR,-21.2428,-48.8042,82.99,28,27,5.88,scattered clouds
299,Ugoofaaru,MV,5.6667,73.0,83.35,72,4,5.28,clear sky
300,Det Udom,TH,14.906,105.0784,80.6,89,40,5.32,scattered clouds
301,Rudraprayag,IN,30.2833,78.9833,65.32,42,0,5.01,clear sky
302,Batticaloa,LK,7.7102,81.6924,79.21,73,48,6.46,scattered clouds
303,Klyuchi,RU,52.2667,79.1667,44.89,45,100,11.16,overcast clouds
304,Kupang,ID,-10.1667,123.5833,73.74,73,59,7.78,broken clouds
305,Rostock,DE,54.0887,12.1405,42.01,52,40,5.75,scattered clouds
306,Dandong,CN,40.1292,124.3947,50.54,36,100,3.8,overcast clouds
307,Abapo,BO,-18.8333,-63.4667,73.76,42,100,2.15,overcast clouds
308,Lavrentiya,RU,65.5833,-171.0,28.38,83,97,1.48,overcast clouds
309,Broome,US,42.2506,-75.833,57.0,60,96,7.0,overcast clouds
310,Mosquera,CO,4.7059,-74.2302,66.2,63,75,8.05,broken clouds
311,Pangody,RU,65.85,74.4859,31.78,90,100,10.38,overcast clouds
312,Polyarnyy,RU,69.1989,33.4478,32.0,74,75,8.95,broken clouds
313,Kiruna,SE,67.8557,20.2251,24.8,74,24,5.75,few clouds
314,Yakima,US,46.4665,-120.6678,57.0,54,90,5.75,overcast clouds
315,Beringovskiy,RU,63.05,179.3167,31.12,86,100,1.99,overcast clouds
316,Red Bluff,US,40.1785,-122.2358,51.8,82,90,17.27,moderate rain
317,Lagoa,PT,39.05,-27.9833,59.31,81,98,13.94,overcast clouds
318,Mount Isa,AU,-20.7333,139.5,71.6,56,5,4.61,light rain
319,Cartagena,CO,10.3997,-75.5144,87.8,70,75,13.8,broken clouds
320,Tuy Hoa,VN,13.0833,109.3,77.67,87,20,1.32,few clouds
321,Shujaabad,PK,29.8797,71.2931,82.4,42,0,6.26,haze
322,Nyurba,RU,63.2842,118.3319,31.87,98,100,4.68,overcast clouds
323,Druzhba,UA,52.0428,33.9453,33.49,65,2,5.44,clear sky
324,Hailar,CN,49.2,119.7,48.61,30,100,14.56,overcast clouds
325,Port Hawkesbury,CA,45.6169,-61.3485,60.8,36,1,11.5,clear sky
326,Los Llanos De Aridane,ES,28.6585,-17.9182,69.8,64,75,3.44,broken clouds
327,Vila Franca Do Campo,PT,37.7167,-25.4333,59.0,77,75,10.36,broken clouds
328,Ca Mau,VN,9.1769,105.15,79.43,84,16,4.0,few clouds
329,Ekhabi,RU,53.5102,142.9671,19.4,87,5,4.79,clear sky
330,Ivanava,BY,52.1451,25.5365,33.46,76,75,6.31,broken clouds
331,Slavyanka,RU,42.8633,131.3847,40.08,56,4,3.65,clear sky
332,Sumbe,AO,-11.2061,13.8437,80.17,87,100,5.79,overcast clouds
333,Baykit,RU,61.67,96.37,28.26,88,63,6.24,broken clouds
334,Asfi,MA,32.2994,-9.2372,63.7,82,6,20.49,clear sky
335,Tamandare,BR,-8.7597,-35.1047,79.84,77,20,7.16,few clouds
336,Brae,GB,60.3964,-1.353,44.6,87,20,5.75,few clouds
337,Itarema,BR,-2.9248,-39.9167,81.03,74,16,11.41,few clouds
338,Ojinaga,MX,29.5667,-104.4167,91.4,6,1,5.75,clear sky
339,Baruun-Urt,MN,46.6806,113.2792,48.78,65,95,18.48,overcast clouds
340,Bengkulu,ID,-3.8004,102.2655,75.76,89,57,4.59,broken clouds
341,Snasa,NO,64.2457,12.3778,37.4,65,75,2.3,broken clouds
342,Dhidhdhoo,MV,6.8833,73.1,83.93,72,16,5.3,few clouds
343,Clyde River,CA,70.4692,-68.5914,21.2,93,90,27.63,light snow
344,Talcahuano,CL,-36.7167,-73.1167,64.4,72,0,13.8,clear sky
345,General Roca,AR,-39.0333,-67.5833,69.8,49,0,11.5,clear sky
346,Seoul,KR,37.5683,126.9778,55.4,62,0,6.91,clear sky
347,Talnakh,RU,69.4865,88.3972,-2.22,95,82,2.35,broken clouds
348,Mindelo,CV,16.8901,-24.9804,71.6,64,20,25.32,few clouds
349,Caravelas,BR,-17.7125,-39.2481,78.53,76,10,8.14,clear sky
350,Mitsamiouli,KM,-11.3847,43.2844,80.8,77,97,10.38,light rain
351,Matara,LK,5.9485,80.5353,77.36,88,24,2.75,few clouds
352,Itacoatiara,BR,-3.1431,-58.4442,84.81,70,99,3.2,overcast clouds
353,Te Anau,NZ,-45.4167,167.7167,43.81,93,100,8.32,overcast clouds
354,La Palma,US,33.8464,-118.0467,71.01,52,75,10.36,broken clouds
355,Chibuto,MZ,-24.6867,33.5306,66.9,88,0,4.09,clear sky
356,Kendari,ID,-3.945,122.4989,73.76,93,16,2.17,few clouds
357,Ntungamo,UG,-0.8833,29.65,65.21,96,100,3.06,light rain
358,San Policarpo,PH,12.1791,125.5072,77.86,82,100,8.97,overcast clouds
359,Venado Tuerto,AR,-33.7456,-61.9688,71.01,99,0,8.01,clear sky
360,Heze,CN,35.2431,115.4411,53.47,75,100,2.13,overcast clouds
361,Adeje,ES,28.1227,-16.726,68.0,68,20,3.44,few clouds
362,Port Shepstone,ZA,-30.7414,30.455,67.8,85,1,5.32,clear sky
363,Carnarvon,AU,-24.8667,113.6333,62.6,72,0,5.75,clear sky
364,Alta Floresta,BR,-9.8756,-56.0861,77.0,100,75,2.3,broken clouds
365,Vestmannaeyjar,IS,63.4427,-20.2734,45.86,80,0,19.46,clear sky
366,Russell,US,32.3502,-85.1999,77.0,44,1,12.66,clear sky
367,Ostrovnoy,RU,68.0531,39.5131,34.07,98,100,19.91,overcast clouds
368,Ahuimanu,US,21.4447,-157.8378,82.4,65,75,13.8,broken clouds
369,Vostok,RU,46.4856,135.8833,22.48,61,9,4.81,clear sky
370,Ambovombe,MG,-25.1667,46.0833,72.12,82,6,7.38,clear sky
371,Noumea,NC,-22.2763,166.4572,77.0,100,75,6.29,broken clouds
372,Redmond,US,47.674,-122.1215,55.99,69,100,5.99,overcast clouds
373,Haines Junction,CA,60.7522,-137.5108,50.0,27,0,4.61,clear sky
374,Kikwit,CD,-5.041,18.8162,71.96,92,67,1.99,moderate rain
375,Narsaq,GL,60.9167,-46.05,50.0,32,75,19.57,broken clouds
376,Miass,RU,55.045,60.1083,36.95,81,22,4.7,few clouds
377,Ancud,CL,-41.8697,-73.8203,60.01,82,75,4.61,broken clouds
378,Sur,OM,22.5667,59.5289,84.29,45,0,10.22,clear sky
379,Sabzevar,IR,36.2126,57.6819,72.79,24,9,16.37,clear sky
380,Playas,EC,-2.6333,-80.3833,77.68,76,54,11.65,broken clouds
381,Leningradskiy,RU,69.3833,178.4167,21.16,86,100,2.35,overcast clouds
382,Airai,TL,-8.9266,125.4092,54.97,83,23,1.63,few clouds
383,Lumberton,US,34.6182,-79.0086,73.4,46,40,11.5,scattered clouds
384,Norilsk,RU,69.3535,88.2027,-1.43,99,100,2.24,overcast clouds
385,Stepnyak,KZ,52.8339,70.7803,44.83,76,7,9.78,clear sky
386,Conceicao Do Araguaia,BR,-8.2578,-49.2647,80.6,74,0,5.75,clear sky
387,Nuuk,GL,64.1835,-51.7216,42.01,75,75,8.05,light rain
388,Khasan,RU,42.4308,130.6434,40.93,47,12,2.77,few clouds
389,Pevek,RU,69.7008,170.3133,20.07,93,100,11.68,light snow
390,Vila Do Maio,CV,15.1333,-23.2167,71.6,68,40,17.27,scattered clouds
391,Bojnurd,IR,37.4747,57.329,57.2,47,0,6.71,clear sky
392,Milkovo,RU,54.7167,158.6167,33.17,89,100,2.39,overcast clouds
393,Luganville,VU,-15.5333,167.1667,78.6,85,81,3.27,broken clouds
394,Mouzouras,GR,35.5333,24.15,55.4,88,40,5.75,scattered clouds
395,Umm Lajj,SA,25.0213,37.2685,82.62,47,0,2.21,clear sky
396,Buarcos,PT,40.166,-8.8768,60.8,88,20,4.61,few clouds
397,Esperantina,BR,-3.9017,-42.2336,83.25,77,61,0.81,broken clouds
398,Prata,BR,-19.3072,-48.9242,84.96,26,18,4.34,few clouds
399,Bonoua,CI,5.2741,-3.595,82.4,89,20,3.44,few clouds
400,Sechura,PE,-5.5569,-80.8222,80.44,58,62,13.42,broken clouds
401,Khowst,AF,33.3833,69.8833,67.06,37,15,3.06,few clouds
402,Beterou,BJ,9.1992,2.2586,82.98,65,94,2.95,overcast clouds
403,Ust-Kuyga,RU,70.0167,135.6,24.6,99,100,4.25,overcast clouds
404,Mount Gambier,AU,-37.8333,140.7667,51.8,93,90,4.61,overcast clouds
405,Las Rosas,AR,-32.4766,-61.5804,64.36,55,0,5.26,clear sky
406,Valparaiso,CL,-33.0393,-71.6273,60.8,82,0,4.61,mist
407,Palasbari,IN,26.1361,91.5486,73.4,73,75,3.53,haze
408,Roma,US,43.2128,-75.4557,55.0,62,90,11.5,overcast clouds
409,Mitchell,US,43.7094,-98.0298,59.0,47,1,29.93,clear sky
410,Lanigan,CA,51.8501,-105.0344,50.0,14,100,11.5,overcast clouds
411,Malakal,SS,9.5334,31.6605,78.3,70,100,5.03,overcast clouds
412,Laon,FR,49.5667,3.6667,50.0,53,0,11.5,clear sky
413,Porto Walter,BR,-8.2686,-72.7439,85.89,67,27,3.91,scattered clouds
414,Kirakira,SB,-10.4544,161.9205,79.7,83,32,4.43,scattered clouds
415,Vavoua,CI,7.3819,-6.4778,76.33,77,99,3.78,overcast clouds
416,Buenos Aires,AR,-34.6132,-58.3772,66.2,68,40,4.61,scattered clouds
417,Seydi,TM,39.4816,62.9137,74.66,19,76,18.72,broken clouds
418,Hibbing,US,47.4272,-92.9377,46.4,25,40,12.66,scattered clouds
419,Marawi,PH,7.9986,124.2928,77.0,90,100,4.0,overcast clouds
420,Kaduqli,SD,11.0167,29.7167,82.38,49,100,14.23,overcast clouds
421,Champerico,GT,14.3,-91.9167,91.4,62,40,6.91,scattered clouds
422,Serowe,BW,-22.3833,26.7167,65.32,25,0,1.32,clear sky
423,Long Xuyen,VN,10.3833,105.4167,77.0,94,93,2.3,overcast clouds
424,Yamada,JP,39.4667,141.95,37.69,70,12,7.96,few clouds
425,Suntar,RU,62.1444,117.6319,34.2,98,100,6.71,light snow
426,San Cristobal,VE,7.7669,-72.225,89.6,55,40,11.5,scattered clouds
427,Missoula,US,47.0166,-113.8009,52.0,71,90,10.36,overcast clouds
428,Ambon,ID,-3.6954,128.1814,81.37,68,61,6.44,broken clouds
429,Port-Cartier,CA,50.0334,-66.8654,46.4,42,40,8.05,scattered clouds
430,Acapulco,MX,16.8634,-99.8901,86.0,66,90,10.36,overcast clouds
431,Camacupa,AO,-12.0167,17.4833,65.44,60,47,2.73,scattered clouds
432,Pisco,PE,-13.7,-76.2167,71.01,83,20,11.5,few clouds
433,Lagos,NG,6.5833,3.75,84.2,74,20,8.05,few clouds
434,Hohhot,CN,40.8106,111.6522,46.4,93,20,2.24,mist
435,Zaraza,VE,9.3503,-65.3245,97.38,28,97,8.28,overcast clouds
436,Arlit,NE,18.7369,7.3853,95.43,9,85,9.33,overcast clouds
437,Kopervik,NO,59.2835,5.3067,42.8,70,20,24.16,few clouds
438,Grindavik,IS,63.8424,-22.4338,44.6,81,20,11.5,few clouds
439,Khani,GE,41.9563,42.9566,53.6,87,75,3.44,broken clouds
440,Krasnoselkup,RU,65.7,82.4667,14.95,90,24,5.14,few clouds
441,Yingkou,CN,40.6648,122.2283,52.97,38,99,3.42,overcast clouds
442,Dalbandin,PK,28.8947,64.4101,79.56,11,13,1.41,few clouds
443,Okhotsk,RU,59.3833,143.3,15.46,74,0,9.28,clear sky
444,Morehead,US,37.2711,-87.1764,66.99,45,1,4.61,clear sky
445,Little Current,CA,45.9793,-81.9248,37.99,55,100,12.66,overcast clouds
446,Buraydah,SA,26.326,43.975,86.0,32,75,18.41,dust
447,Olinda,BR,-8.0089,-34.8553,80.6,69,40,9.22,scattered clouds
448,Baker City,US,44.7749,-117.8344,46.99,76,90,4.61,overcast clouds
449,Praia,CV,14.9215,-23.5087,71.6,68,40,17.27,scattered clouds
450,Maturin,VE,9.75,-63.1767,84.06,58,100,9.15,overcast clouds
451,Nemuro,JP,43.3236,145.575,32.0,67,11,17.81,few clouds
452,Arman,RU,59.7,150.1667,12.56,77,32,7.76,scattered clouds
453,Monteagudo,BO,-19.8167,-63.9833,71.6,56,75,4.38,broken clouds
454,Zyryanka,RU,65.75,150.85,6.48,90,6,8.5,clear sky
455,Velur,IN,12.9333,79.1333,80.69,80,5,7.0,clear sky
456,Maldonado,UY,-34.6667,-54.9167,66.99,77,75,19.57,broken clouds
457,Bethlehem,BR,-1.4558,-48.5044,84.2,79,40,8.05,scattered clouds
458,Henderson,US,36.0397,-114.9819,80.6,9,1,16.11,clear sky
459,Sangar,RU,63.9242,127.4739,25.5,94,100,12.1,light snow
460,Pangnirtung,CA,66.1451,-65.7125,32.0,86,90,3.44,overcast clouds
461,Faya,SA,18.3851,42.4509,62.6,67,40,6.91,scattered clouds
462,Kaduna,NG,10.5222,7.4383,71.08,86,100,11.72,light rain
463,Hamilton,US,39.1834,-84.5333,64.0,36,20,5.75,few clouds
464,Paamiut,GL,61.994,-49.6678,36.77,96,100,1.54,light rain
465,La Pintada,CO,5.7487,-75.6063,71.6,60,75,9.22,broken clouds
466,Tarquinia,IT,42.2482,11.7553,55.99,88,52,5.01,broken clouds
467,Nhulunbuy,AU,-12.2333,136.7667,75.2,94,75,3.44,broken clouds
468,Romodanovo,RU,54.4275,45.3296,38.55,69,9,16.6,clear sky
469,Batemans Bay,AU,-35.7167,150.1833,50.0,90,8,3.0,clear sky
470,Diego De Almagro,CL,-26.3667,-70.05,72.43,34,0,10.89,clear sky
471,Annau,TM,37.8876,58.516,68.0,45,0,4.61,clear sky
472,Anadyr,RU,64.75,177.4833,26.6,93,75,4.47,fog
473,Tevriz,RU,57.509,72.4042,45.16,54,100,9.51,overcast clouds
474,Papara,BR,-3.9839,-38.7273,84.99,70,0,9.22,clear sky
475,Samarinda,ID,-0.5,117.15,72.61,98,87,1.16,overcast clouds
476,Pacific Grove,US,36.6177,-121.9166,60.8,59,90,10.36,overcast clouds
477,Shiyan,CN,32.6475,110.7781,54.07,96,100,1.68,light rain
478,Presidencia Roque Saenz Pena,AR,-26.7852,-60.4388,73.0,55,0,5.01,clear sky
479,Alofi,NU,-19.0595,-169.9187,82.4,78,40,3.44,light rain
480,Adrar,MR,20.5022,-10.0711,88.09,15,21,10.56,few clouds
481,Gao,ML,16.6362,1.637,91.51,5,5,7.83,clear sky
482,Sambava,MG,-14.2667,50.1667,74.14,88,95,8.03,overcast clouds
483,Lethem,GY,3.3803,-59.7968,84.29,65,100,7.23,overcast clouds
484,Djambala,CG,-2.5447,14.7533,71.2,82,14,0.98,few clouds
485,Zomba,MW,-15.386,35.3188,64.9,89,94,4.32,overcast clouds
486,Kinsale,IE,51.7075,-8.5306,48.0,61,20,9.22,few clouds
487,Hami,CN,42.8,93.45,41.02,20,90,6.11,overcast clouds
488,Lydenburg,ZA,-25.0978,30.4597,46.99,81,0,1.99,clear sky
489,Meulaboh,ID,4.1363,96.1285,76.87,86,82,4.36,broken clouds
490,Anamur,TR,36.0751,32.8369,60.8,88,0,3.44,clear sky
491,Koshurnikovo,RU,54.1667,93.3,30.65,99,100,2.71,light snow
492,Fort Nelson,CA,58.8053,-122.7002,51.8,22,20,4.61,few clouds
493,Plettenberg Bay,ZA,-34.0527,23.3716,66.22,71,100,5.23,overcast clouds
494,Maumere,ID,-8.6199,122.2111,79.72,72,98,8.05,overcast clouds
495,Aldan,RU,58.6031,125.3894,31.06,98,100,4.74,snow
496,Garden City,US,42.3256,-83.331,57.0,37,20,14.97,few clouds
497,Ratnagiri,IN,16.9833,73.3,81.12,78,10,1.21,clear sky
498,La Asuncion,VE,11.0333,-63.8628,95.0,43,11,23.02,few clouds
499,Sergeyevka,KZ,53.88,67.4158,47.5,57,78,7.78,broken clouds
500,Cabedelo,BR,-6.9811,-34.8339,80.6,78,0,12.66,clear sky
501,Yangjiang,CN,21.85,111.9667,74.39,90,100,7.99,overcast clouds
502,Xinzhou,CN,38.4092,112.7333,52.02,63,100,2.01,light rain
503,Melipilla,CL,-33.7,-71.2167,79.0,82,0,9.22,clear sky
504,Quatre Cocos,MU,-20.2078,57.7625,78.01,94,75,12.66,light rain
505,Wenling,CN,28.3669,121.36,62.01,80,68,6.38,broken clouds
506,Cam Ranh,VN,11.9214,109.1591,78.8,83,40,1.14,scattered clouds
507,Phayao,TH,19.25,100.25,74.79,85,100,0.85,light rain
508,Channel-Port Aux Basques,CA,47.5702,-59.1367,41.58,76,7,5.23,clear sky
509,Znamenskoye,RU,57.1281,73.8282,43.02,58,100,9.73,overcast clouds
510,Dunmore Town,BS,25.5,-76.65,78.66,81,6,10.58,clear sky
511,Jawa,JO,31.8525,35.9393,73.4,43,0,2.3,clear sky
512,Adana,TR,36.985,35.2881,66.2,82,75,1.3,broken clouds
513,Khorixas,NA,-20.3667,14.9667,69.06,51,37,6.4,scattered clouds
514,Kenora,CA,49.8167,-94.4337,46.4,27,75,16.11,broken clouds
515,Soligalich,RU,59.0778,42.2864,40.66,97,100,4.25,overcast clouds
516,Mahon,ES,39.8885,4.2658,59.0,82,0,14.97,clear sky
517,Roald,NO,62.5833,6.1333,37.99,75,75,6.91,broken clouds
518,Whyalla,AU,-33.0333,137.5833,48.2,93,37,2.3,scattered clouds
519,Saint-Augustin,CA,51.226,-58.6502,48.0,41,92,10.49,overcast clouds
520,Qazvin,IR,36.2797,50.0049,60.8,51,0,2.3,clear sky
521,Dehloran,IR,32.6941,47.2679,89.69,14,95,7.7,overcast clouds
522,Fairbanks,US,64.8378,-147.7164,55.4,32,1,0.69,clear sky
523,Palmer,US,42.1584,-72.3287,55.4,62,90,4.61,overcast clouds
524,Aranjuez,ES,40.0311,-3.6025,57.0,79,100,4.38,light rain
525,Walvis Bay,NA,-22.9575,14.5053,62.01,82,20,3.44,few clouds
526,Laguna,US,38.421,-121.4238,63.0,55,90,10.36,overcast clouds
527,Dakar,SN,14.6937,-17.4441,69.8,83,40,9.22,scattered clouds
528,Waingapu,ID,-9.6567,120.2641,76.05,78,76,8.48,broken clouds
529,Touros,BR,-5.1989,-35.4608,82.4,74,20,12.66,few clouds
530,Kandra,IN,22.85,86.05,85.5,22,3,4.34,clear sky
531,Novo Aripuana,BR,-5.1206,-60.3797,81.95,89,90,2.53,overcast clouds
532,Kalia,BD,23.0396,89.6328,81.27,58,57,7.56,broken clouds
533,Yeppoon,AU,-23.1333,150.7333,64.4,77,21,6.91,few clouds
534,Sehithwa,BW,-20.4667,22.7167,68.43,25,0,6.42,clear sky
535,Pierre,US,44.3683,-100.351,73.99,39,1,11.5,clear sky
536,Amurzet,RU,47.6967,131.0981,36.97,40,58,5.01,broken clouds
537,Paveh,IR,35.0434,46.3565,61.61,33,3,2.33,clear sky
538,Matata,NZ,-37.8833,176.75,54.0,97,100,5.17,overcast clouds
539,Cintalapa,MX,16.6951,-93.7272,93.29,35,26,12.01,scattered clouds
540,Ohringen,DE,49.2017,9.5039,48.2,49,15,12.66,few clouds
541,Tuatapere,NZ,-46.1333,167.6833,45.0,80,77,10.0,light rain
542,Husavik,IS,66.0449,-17.3389,37.4,93,90,14.97,overcast clouds
543,Belogorsk,RU,50.9158,128.4611,40.57,46,100,8.59,overcast clouds
544,Bilibino,RU,68.0546,166.4372,18.46,92,98,2.64,overcast clouds
545,Katangli,RU,51.7102,143.2326,21.94,80,9,3.18,clear sky
546,Uvat,RU,59.1433,68.8953,44.2,61,100,10.42,overcast clouds
547,Gatton,AU,-27.55,152.2833,55.0,93,23,1.61,mist
548,Aliwal North,ZA,-30.6937,26.7114,58.06,35,59,2.84,broken clouds
549,Tessalit,ML,20.1986,1.0114,92.59,6,0,7.34,clear sky
550,Moroni,KM,-11.7022,43.2551,79.41,79,95,3.11,light rain
551,Maceio,BR,-9.6658,-35.7353,80.6,74,0,8.05,clear sky
552,Ketchikan,US,55.3422,-131.6461,57.2,33,1,8.05,clear sky
553,Jasper,US,37.2001,-94.3502,75.2,35,1,19.57,clear sky
554,Yerazgavors,AM,40.7,43.75,50.0,87,75,6.91,light rain
555,Tateyama,JP,34.9833,139.8667,50.0,32,80,5.99,broken clouds
556,Oranjemund,NA,-28.55,16.4333,62.26,88,100,5.77,overcast clouds
557,Fandriana,MG,-20.2333,47.3833,60.64,95,100,2.48,overcast clouds
558,San Patricio,US,28.017,-97.5169,87.8,45,1,13.8,clear sky
559,Grand-Lahou,CI,5.1367,-5.0242,78.98,79,100,2.93,overcast clouds
560,Victor Harbor,AU,-35.5667,138.6167,55.0,93,5,2.42,clear sky
561,Bom Jesus,BR,-9.0744,-44.3586,80.1,71,100,3.18,light rain
562,Srbac,BA,45.0978,17.525,53.6,54,0,3.44,clear sky
563,Saint George,US,37.1041,-113.5841,80.6,10,1,28.77,clear sky
564,Ribeira Brava,PT,32.65,-17.0667,60.01,87,43,1.99,scattered clouds
565,Bierun,PL,50.09,19.0929,37.0,66,5,1.01,clear sky
566,Tayoltita,MX,24.0833,-105.9333,91.24,9,91,8.72,overcast clouds
567,Constantine,DZ,36.365,6.6147,66.2,55,0,2.3,clear sky
568,Sokol,RU,59.4617,40.1206,40.78,97,100,3.56,light rain
569,Spencer,US,43.1414,-95.1444,48.2,66,75,24.16,broken clouds
570,Lac Du Bonnet,CA,50.2536,-96.0612,46.99,86,100,7.0,overcast clouds
571,Le Port,RE,-20.9373,55.2919,75.2,83,75,19.57,broken clouds
572,Tura,IN,25.5198,90.2201,76.93,29,2,3.89,clear sky
573,Campbell River,CA,50.0163,-125.2446,50.0,93,90,6.91,mist
574,Puerto Carreno,CO,6.189,-67.4859,91.33,45,100,5.91,overcast clouds
575,Comodoro Rivadavia,AR,-45.8667,-67.5,68.0,49,0,9.22,clear sky
576,Gat,IL,31.61,34.7642,73.0,59,0,7.23,clear sky
577,Iwaki,JP,37.05,140.8833,36.0,69,0,1.01,clear sky
578,Santa Cruz,BO,-17.8,-63.1667,77.0,53,75,19.57,light rain
579,Puerto Madryn,AR,-42.7692,-65.0385,66.31,45,93,21.14,overcast clouds
580,Havre-Saint-Pierre,CA,50.2334,-63.5986,50.0,40,1,6.91,clear sky
581,Dubbo,AU,-32.25,148.6167,41.0,87,0,10.36,clear sky
582,Kamina,CD,-8.7386,24.9906,62.56,87,91,1.19,overcast clouds
583,Hastings,GB,50.8552,0.5729,44.6,70,90,24.16,overcast clouds
584,Kenai,US,60.5544,-151.2583,51.8,43,1,5.75,clear sky
585,Itoman,JP,26.1247,127.6694,66.2,77,20,6.91,few clouds
586,Kulhudhuffushi,MV,6.6221,73.07,83.98,72,14,5.84,few clouds
587,Vila Velha,BR,-20.3297,-40.2925,82.99,74,40,5.75,scattered clouds
588,Saint-Leu,RE,-21.15,55.2833,78.8,73,40,20.71,scattered clouds
589,Bonavista,CA,48.6499,-53.1147,53.6,47,78,13.8,broken clouds
590,Cabatuan,PH,10.8794,122.486,75.7,80,43,3.89,scattered clouds
591,Severnyy-Kospashskiy,RU,59.0925,57.8008,37.99,92,100,1.99,overcast clouds
592,The Pas,CA,53.8251,-101.2541,46.4,29,40,14.97,scattered clouds
593,Namatanai,PG,-3.6667,152.4333,78.98,82,84,2.13,light rain
594,Sabang,ID,5.8933,95.3214,81.79,75,94,12.5,overcast clouds
595,Shimoda,JP,34.6667,138.95,57.2,41,40,12.66,scattered clouds
596,Pemangkat,ID,1.1667,108.9667,77.47,87,99,4.83,overcast clouds
597,Miri,MY,4.4148,114.0089,77.0,94,20,3.44,few clouds
598,Aksarka,RU,66.5606,67.7975,33.69,98,100,10.98,overcast clouds
599,Konstantinovka,RU,49.6167,127.9833,40.89,49,100,6.82,overcast clouds
600,Gigmoto,PH,13.7796,124.39,76.62,81,100,7.78,overcast clouds
601,Yasugi,JP,35.4333,133.25,51.8,46,20,14.97,few clouds
602,Anloga,GH,5.7947,0.8973,84.2,84,40,8.05,scattered clouds
603,Tiznit,MA,29.5833,-9.5,60.6,60,0,5.93,clear sky
604,Ballina,AU,-28.8667,153.5667,60.8,94,90,5.75,overcast clouds
605,Auki,SB,-8.7676,160.7034,79.23,87,58,0.83,broken clouds
606,Syracuse,IT,37.0881,15.2792,60.8,72,75,6.91,broken clouds
607,Labuhan,ID,-6.8844,112.2051,77.11,86,84,7.25,broken clouds
608,Gisborne,NZ,-38.6533,178.0042,50.0,86,3,1.99,clear sky
609,Mayor Pablo Lagerenza,PY,-19.9309,-60.7718,73.27,65,100,9.66,overcast clouds
610,Mwinilunga,ZM,-11.7358,24.4293,64.65,83,99,2.64,overcast clouds
611,Tshikapa,CD,-6.4167,20.8,71.47,94,96,2.39,light rain
612,Mandalgovi,MN,45.7625,106.2708,29.68,81,30,23.11,scattered clouds
613,Mustasaari,FI,63.1142,21.6822,34.0,86,90,20.71,light snow
614,Payson,US,40.0444,-111.7321,68.0,51,90,9.22,overcast clouds
615,Waipawa,NZ,-41.4122,175.5153,52.0,76,75,3.44,broken clouds
616,Beau Vallon,MU,-20.4189,57.6953,75.2,94,75,12.66,light rain
617,Aketi,CD,2.7388,23.7833,67.86,99,100,3.91,moderate rain
618,Colomi,BO,-17.35,-65.8667,73.4,31,20,9.22,few clouds
619,Rorvik,NO,64.8621,11.2373,37.4,65,75,4.61,broken clouds
620,Tautira,PF,-17.7333,-149.15,84.2,70,40,8.05,scattered clouds
621,Porto Novo,BJ,6.4965,2.6036,84.2,79,40,11.5,scattered clouds
622,Praya,CV,14.9215,-23.5087,71.6,68,40,17.27,scattered clouds
623,Tabas,IR,33.5959,56.9244,81.1,18,100,5.82,overcast clouds
624,Chuzhou,CN,32.3219,118.2978,60.15,98,100,4.23,light rain
625,Evensk,RU,61.95,159.2333,22.84,94,100,5.01,light snow
626,Mayo,US,38.8876,-76.5119,64.99,45,75,17.27,broken clouds
627,Sorland,NO,67.667,12.6934,35.6,87,75,4.61,broken clouds
628,Chokwe,MZ,-24.5333,32.9833,67.77,82,0,5.14,clear sky
629,Navalmoral De La Mata,ES,39.8916,-5.5406,52.0,93,44,1.99,moderate rain
630,Asyut,EG,27.181,31.1837,89.6,25,0,17.27,clear sky
631,Kaitangata,NZ,-46.2817,169.8464,37.0,73,84,4.0,broken clouds
632,Hongjiang,CN,27.11,109.9956,58.42,98,100,3.22,moderate rain
633,Novobirilyussy,RU,56.9514,90.6661,34.77,99,100,3.96,overcast clouds
634,Garissa,KE,-0.4536,39.6401,82.83,64,86,16.42,overcast clouds
635,Katobu,ID,-4.9408,122.5276,74.03,88,96,3.51,overcast clouds
636,Rio De Jesus,PA,7.9844,-81.1631,90.61,50,94,6.64,overcast clouds
637,Wamba,NG,8.9333,8.6,75.74,80,100,6.64,overcast clouds
638,Tsabong,BW,-26.0217,22.401,73.22,20,99,6.13,overcast clouds
639,Iquitos,PE,-3.7481,-73.2472,89.6,62,40,5.75,scattered clouds
640,Nachingwea,TZ,-10.3833,38.7667,68.83,98,94,2.42,overcast clouds
641,Cairo,EG,30.0626,31.2497,73.0,40,0,10.36,clear sky
642,Sicuani,PE,-14.2694,-71.2261,60.46,32,29,11.61,scattered clouds
643,Skelleftea,SE,64.7507,20.9528,37.4,48,90,10.36,overcast clouds
644,Saint-Georges,GD,12.0564,-61.7485,84.2,70,20,20.71,few clouds
645,Bertoua,CM,4.5833,13.6833,72.64,78,90,2.42,light rain
646,Nalut,LY,30.3333,10.85,76.19,18,9,14.83,clear sky
647,Moose Factory,CA,51.2585,-80.6094,30.2,51,20,16.11,few clouds
648,Makakilo City,US,21.3469,-158.0858,82.4,51,20,10.36,few clouds
649,Mwene-Ditu,CD,-7.0,23.45,68.09,92,63,2.01,light rain
650,Igarka,RU,67.4667,86.5833,4.3,99,92,7.87,overcast clouds
651,Ahipara,NZ,-35.1667,173.1667,59.14,80,65,7.02,broken clouds
652,Clarence Town,AU,-32.5833,151.7833,54.0,100,2,6.91,clear sky
653,Shieli,KZ,44.1667,66.75,59.61,37,100,9.31,overcast clouds
654,Chernyshevskiy,RU,63.0128,112.4714,25.5,99,100,3.15,overcast clouds
655,Chotila,IN,22.4167,71.1833,88.0,40,9,3.2,clear sky
656,Svetlogorsk,BY,52.6333,29.7333,32.56,76,10,6.13,clear sky
657,Havelock,US,34.8791,-76.9013,68.0,65,69,1.01,broken clouds
658,Pajapan,MX,18.25,-94.7,86.0,70,75,11.5,broken clouds
659,Iskateley,RU,67.6803,53.1512,39.11,89,100,7.34,overcast clouds
660,Jumla,NP,29.2747,82.1838,46.35,47,0,4.14,clear sky
661,Zandvoort,NL,52.3749,4.5341,44.01,65,0,10.36,clear sky
662,Abengourou,CI,6.7297,-3.4964,76.14,83,100,2.95,overcast clouds
663,Peremyshl,RU,54.2631,36.1606,35.6,60,68,6.71,broken clouds
664,Methoni,GR,36.8197,21.7049,60.01,87,1,4.61,clear sky
665,Uinskoye,RU,56.8817,56.5813,37.24,84,78,10.98,broken clouds
666,Bandarbeyla,SO,9.4942,50.8122,83.01,72,64,8.39,broken clouds
667,Cuenca,EC,-2.8833,-78.9833,73.4,43,40,11.5,light rain
668,Piacabucu,BR,-10.4056,-36.4344,79.68,78,8,7.56,clear sky
669,Gondar,ET,12.6,37.4667,66.22,54,88,5.35,overcast clouds
670,Maragogi,BR,-9.0122,-35.2225,79.14,79,6,7.25,clear sky
671,Cockburn Town,TC,21.4612,-71.1419,82.4,65,40,13.8,scattered clouds
672,Bitlis,TR,38.5,42.25,52.99,55,29,5.32,light rain
673,Jiwani,PK,25.05,61.7417,82.31,57,94,5.73,overcast clouds
674,Poso,ID,-1.3959,120.7524,75.81,86,89,5.32,overcast clouds
675,Durban,ZA,-29.8579,31.0292,70.0,94,0,1.14,clear sky
676,Sao Borja,BR,-28.6606,-56.0044,71.69,49,5,11.25,clear sky
677,Gambela,ET,8.25,34.5833,75.13,82,93,1.97,moderate rain
678,Bose,IT,45.4612,8.0137,64.0,63,100,2.08,overcast clouds
679,Kununurra,AU,-15.7667,128.7333,62.6,88,96,1.14,overcast clouds
680,Tres Arroyos,AR,-38.3739,-60.2798,60.35,73,100,5.19,overcast clouds
681,Shirokiy,RU,49.758,129.523,36.99,46,99,5.77,overcast clouds
682,Kyabe,TD,9.4515,18.9449,82.0,57,100,12.06,light rain
683,Kutum,SD,14.2,24.6667,80.82,15,18,7.87,few clouds
684,Basco,PH,20.4487,121.9702,75.85,74,84,19.73,broken clouds
685,Nueva Loja,EC,0.0847,-76.8828,73.4,100,90,10.36,overcast clouds
686,Atambua,ID,-9.1061,124.8925,68.92,83,14,5.21,few clouds
687,Senneterre,CA,48.3835,-77.2328,26.6,80,90,14.97,light snow
688,Dalvik,IS,65.9702,-18.5286,37.4,93,90,14.97,overcast clouds
689,Terrace Bay,CA,48.7834,-87.1,37.4,55,20,8.05,few clouds
690,Murgab,TM,37.4966,61.9714,69.8,46,75,6.91,broken clouds
691,Diamantino,BR,-14.4086,-56.4461,79.09,77,100,7.92,overcast clouds
692,Kampene,CD,-3.6,26.6667,68.31,97,93,1.61,overcast clouds
693,Mana,GF,5.6592,-53.7767,80.38,82,66,10.85,broken clouds
694,Srivardhan,IN,18.0333,73.0167,81.32,83,55,5.12,broken clouds
695,Abu Samrah,SY,35.3029,37.1841,71.92,42,59,5.46,broken clouds
